{"331": {"name": "Ahmad Ibrahim Secondary School Field", "address": "Yishun Avenue 7, Singapore", "lat": 1.436316, "lng": 103.8299037}, "551": {"name": "Anchor Green Primary School Hall", "address": "31 Anchorvale Dr, Singapore 544969", "lat": 1.3909254, "lng": 103.8874074}, "334": {"name": "Anderson Secondary School Field", "address": "10 Ang Mo Kio Street 53, Singapore 569206", "lat": 1.374639, "lng": 103.8510309}, "322": {"name": "Anderson Secondary School Hall", "address": "10 Ang Mo Kio Street 53, Singapore 569206", "lat": 1.374639, "lng": 103.8510309}, "867": {"name": "Ang Mo Kio Primary School Hall", "address": "20 Ang Mo Kio Ave 3, Singapore 569920", "lat": 1.3693312, "lng": 103.8397408}, "337": {"name": "Ang Mo Kio Secondary School Field", "address": "6 Ang Mo Kio Street 22, Singapore 569362", "lat": 1.367353, "lng": 103.8426}, "460": {"name": "Ang Mo Kio Secondary School Hall", "address": "6 Ang Mo Kio Street 22, Singapore 569362", "lat": 1.367353, "lng": 103.8426}, "445": {"name": "Bartley Secondary School Field", "address": "10 Jln Bunga Rampai, Singapore 538403", "lat": 1.340275, "lng": 103.882831}, "339": {"name": "Beatty Secondary School Field", "address": "1 Toa Payoh N, Singapore 318990", "lat": 1.34154, "lng": 103.851956}, "420": {"name": "Beatty Secondary School Hall", "address": "1 Toa Payoh N, Singapore 318990", "lat": 1.34154, "lng": 103.851956}, "341": {"name": "Bedok Green Secondary School Field", "address": "Singapore", "lat": 1.3341416, "lng": 103.935336}, "343": {"name": "Bedok North Secondary School Field", "address": "20 Jalan Damai, Singapore 419612", "lat": 1.3347987, "lng": 103.9102302}, "421": {"name": "Bedok North Secondary School Hall", "address": "20 Jalan Damai, Singapore 419612", "lat": 1.3347987, "lng": 103.9102302}, "346": {"name": "Bedok South Secondary School Field", "address": "1 Jln Langgar Bedok, Singapore 468585", "lat": 1.3248089, "lng": 103.950977}, "323": {"name": "Bedok South Secondary School Hall", "address": "1 Jln Langgar Bedok, Singapore 468585", "lat": 1.3248089, "lng": 103.950977}, "291": {"name": "Bedok Sports Hall", "address": "3 Bedok North Street 2, Singapore 469643", "lat": 1.3263408, "lng": 103.9377652}, "133": {"name": "Bedok Tennis Centre", "address": "3 Bedok North Street 2, Singapore 469643", "lat": 1.3263793, "lng": 103.9367509}, "348": {"name": "Bedok View Secondary School Field", "address": "6 Bedok South Ave 3, Singapore 469293", "lat": 1.3246274, "lng": 103.9438629}, "324": {"name": "Bedok View Secondary School Hall", "address": "6 Bedok South Ave 3, Singapore 469293", "lat": 1.3246274, "lng": 103.9438629}, "821": {"name": "Bendemeer Primary School Hall", "address": "91 Bendemeer Road, Singapore 339948", "lat": 1.321834, "lng": 103.8655072}, "351": {"name": "Bendemeer Secondary School Field", "address": "1 St Wilfred Rd, Singapore 327919", "lat": 1.3246123, "lng": 103.8606641}, "554": {"name": "Bendemeer Secondary School Hall", "address": "1 St Wilfred Rd, Singapore 327919", "lat": 1.3246123, "lng": 103.8606641}, "354": {"name": "Bishan Park Secondary School Field", "address": "2 Sin Ming Walk, Singapore 575565", "lat": 1.3643739, "lng": 103.8328855}, "292": {"name": "Bishan Sports Hall", "address": "5 Bishan Street 14, Singapore 579783", "lat": 1.3555916, "lng": 103.8509826}, "871": {"name": "Blangah Rise Primary School Hall", "address": "Singapore", "lat": 1.2761957, "lng": 103.8086755}, "356": {"name": "Boon Lay Secondary School Field", "address": "11 Jurong West Street 65, Singapore 648354", "lat": 1.342172, "lng": 103.701945}, "822": {"name": "Boon Lay Secondary School Hall", "address": "11 Jurong West Street 65, Singapore 648354", "lat": 1.342172, "lng": 103.701945}, "360": {"name": "Bowen Secondary School Field", "address": "2 Lor Napiri, Singapore 547529", "lat": 1.371165, "lng": 103.877974}, "869": {"name": "Bowen Secondary School Hall", "address": "2 Lor Napiri, Singapore 547529", "lat": 1.371165, "lng": 103.877974}, "363": {"name": "Broadrick Secondary School Field", "address": "61 Dakota Cres, Singapore 399935", "lat": 1.3072755, "lng": 103.8872129}, "293": {"name": "Bukit Gombak Sports Hall", "address": "810 Bukit Batok West Ave 5, Singapore 659088", "lat": 1.359667, "lng": 103.752228}, "367": {"name": "Bukit Merah Secondary School Field", "address": "10 Lengkok Bahru, Singapore 159050", "lat": 1.2858957, "lng": 103.813113}, "823": {"name": "Bukit Panjang Govt High School Hall", "address": "7 Choa Chu Kang Ave 4, Singapore 689809", "lat": 1.3818716, "lng": 103.7385804}, "879": {"name": "Bukit Panjang Primary School Hall", "address": "109 Cashew Rd, Singapore 679676", "lat": 1.3735964, "lng": 103.7695266}, "415": {"name": "Bukit View Secondary School Field", "address": "16 Bukit Batok Street 21, Singapore 659633", "lat": 1.346088, "lng": 103.752662}, "325": {"name": "Bukit View Secondary School Hall", "address": "16 Bukit Batok Street 21, Singapore 659633", "lat": 1.346088, "lng": 103.752662}, "294": {"name": "Burghley Squash Centre", "address": "43 Burghley Dr, Singapore 559020", "lat": 1.3595314, "lng": 103.8606061}, "150": {"name": "Burghley Tennis Centre", "address": "43 Burghley Dr, Singapore 559020", "lat": 1.3595314, "lng": 103.8606061}, "877": {"name": "Canberra Primary School Hall", "address": "21 Admiralty Dr, Singapore 757714", "lat": 1.450997, "lng": 103.8155405}, "824": {"name": "Cantonment Primary School Hall", "address": "1 Cantonment Close, Singapore 088256", "lat": 1.2755854, "lng": 103.8400126}, "864": {"name": "CHIJ St. Joseph's Convent School Hall", "address": "62 Sengkang East Way, Singapore 548595", "lat": 1.391747, "lng": 103.902461}, "809": {"name": "Choa Chu Kang Conference Room", "address": "1 Choa Chu Kang Street 53, Singapore 689236", "lat": 1.3913049, "lng": 103.7484878}, "382": {"name": "Choa Chu Kang Secondary School Field", "address": "3 Teck Whye Cres, Singapore 688845", "lat": 1.3834832, "lng": 103.7515449}, "295": {"name": "Choa Chu Kang Sports Hall", "address": "1 Choa Chu Kang Street 53, Singapore 689236", "lat": 1.3913049, "lng": 103.7484878}, "156": {"name": "Choa Chu Kang Street Soccer Court", "address": "1 Choa Chu Kang Street 53, Singapore 689236", "lat": 1.3909869, "lng": 103.7486764}, "158": {"name": "Choa Chu Kang Tennis Centre", "address": "1 Choa Chu Kang Street 53, Singapore 689236", "lat": 1.3913049, "lng": 103.7484878}, "564": {"name": "Clementi Primary School Hall", "address": "8 Clementi Ave 3, Singapore 129903", "lat": 1.3155899, "lng": 103.763047}, "296": {"name": "Clementi Sports Hall", "address": "518 Clementi Ave 3, Singapore 129907", "lat": 1.310904, "lng": 103.765027}, "416": {"name": "Clementi Town Secondary School Field", "address": "10 Clementi Ave 3, Singapore 129904", "lat": 1.315501, "lng": 103.762094}, "565": {"name": "Clementi Town Secondary School Hall", "address": "10 Clementi Ave 3, Singapore 129904", "lat": 1.315501, "lng": 103.762094}, "388": {"name": "Commonwealth Secondary School Field", "address": "698 West Coast Rd, Singapore 608784", "lat": 1.3189295, "lng": 103.7455916}, "566": {"name": "Commonwealth Secondary School Hall", "address": "698 West Coast Rd, Singapore 608784", "lat": 1.3189295, "lng": 103.7455916}, "390": {"name": "Compassvale Secondary School Field", "address": "51 Compassvale Cres, Singapore 545083", "lat": 1.396086, "lng": 103.899711}, "418": {"name": "Coral Secondary School Field", "address": "31 Pasir Ris Street 51, Singapore 518901", "lat": 1.3675302, "lng": 103.9492665}, "556": {"name": "Coral Secondary School Hall", "address": "31 Pasir Ris Street 51, Singapore 518901", "lat": 1.3675302, "lng": 103.9492665}, "440": {"name": "Crescent Girls School Field", "address": "357 Tanglin Road, Singapore 247961", "lat": 1.2940179, "lng": 103.8166752}, "555": {"name": "Crescent Girls Secondary School Hall", "address": "357 Tanglin Road, Singapore 247961", "lat": 1.2940179, "lng": 103.8166752}, "627": {"name": "Crest Secondary School Field", "address": "561 Jurong East Street 24, Singapore 609561", "lat": 1.3436637, "lng": 103.7428639}, "735": {"name": "Crest Secondary School Hall", "address": "561 Jurong East Street 24, Singapore 609561", "lat": 1.3436637, "lng": 103.7428639}, "761": {"name": "Crest Secondary School Outdoor Basketball Court", "address": "561 Jurong East Street 24, Singapore 609561", "lat": 1.3436637, "lng": 103.7428639}, "743": {"name": "Crest Secondary School Street Soccer Court", "address": "561 Jurong East Street 24, Singapore 609561", "lat": 1.3436637, "lng": 103.7428639}, "393": {"name": "Damai Secondary School Field", "address": "Singapore", "lat": 1.3371168, "lng": 103.9269971}, "167": {"name": "Delta Hockey Pitch", "address": "900 Tiong Bahru Rd, Singapore 158790", "lat": 1.2893412, "lng": 103.8206895}, "298": {"name": "Delta Sports Hall", "address": "Delta Sports Hall, Singapore", "lat": 1.2909034, "lng": 103.8204723}, "804": {"name": "Delta Sports Hall - Meeting Room", "address": "900 Tiong Bahru Road, Singapore 158790", "lat": 1.289468, "lng": 103.820462}, "397": {"name": "Deyi Secondary School Field", "address": "1 Ang Mo Kio Street 42, Singapore 569277", "lat": 1.366107, "lng": 103.852332}, "852": {"name": "Dunman High School Field", "address": "10 Tanjong Rhu Rd, Singapore 436895", "lat": 1.2983683, "lng": 103.8822616}, "825": {"name": "Dunman High School Hall", "address": "10 Tanjong Rhu Rd, Singapore 436895", "lat": 1.2983683, "lng": 103.8822616}, "874": {"name": "East Spring Primary School Hall", "address": "31 Tampines Street 33, Singapore 529258", "lat": 1.35349, "lng": 103.961799}, "362": {"name": "East Spring Secondary School Field", "address": "30 Tampines Street 34, Singapore 529231", "lat": 1.3568208, "lng": 103.9607517}, "422": {"name": "East Spring Secondary School Hall", "address": "30 Tampines Street 34, Singapore 529231", "lat": 1.3568208, "lng": 103.9607517}, "365": {"name": "East View Secondary School Field", "address": "3 Tampines Street 42, Singapore 529177", "lat": 1.35813, "lng": 103.9493416}, "423": {"name": "East View Secondary School Hall", "address": "3 Tampines Street 42, Singapore 529177", "lat": 1.35813, "lng": 103.9493416}, "826": {"name": "Edgefield Secondary School Hall", "address": "36 Punggol Field, Singapore 828814", "lat": 1.4002145, "lng": 103.902302}, "326": {"name": "Endeavour Primary School Hall", "address": "10 Admiralty Link, Singapore 757521", "lat": 1.4545646, "lng": 103.8171781}, "368": {"name": "Evergreen Secondary School Field", "address": "11 Woodlands Street 83, Singapore 738489", "lat": 1.4415383, "lng": 103.7936114}, "378": {"name": "Fajar Secondary School Field", "address": "58 Chestnut Dr, Singapore 679301", "lat": 1.3691491, "lng": 103.7701935}, "175": {"name": "Farrer Park Field", "address": "1 Rutland Rd, Singapore 218254", "lat": 1.311185, "lng": 103.849076}, "300": {"name": "Farrer Park Tennis Centre", "address": "1 Rutland Rd, Singapore 218254", "lat": 1.311185, "lng": 103.849076}, "567": {"name": "Frontier Primary School Hall", "address": "20 Jurong West Street 61, Singapore 648300", "lat": 1.336843, "lng": 103.6997742}, "375": {"name": "Fuchun Secondary School Field", "address": "21 Woodlands Ave 1, Singapore 739062", "lat": 1.430948, "lng": 103.777326}, "379": {"name": "Fuhua Secondary School Field", "address": "5 Jurong West Street 41, Singapore 649410", "lat": 1.347278, "lng": 103.7265636}, "424": {"name": "Fuhua Secondary School Hall", "address": "5 Jurong West Street 41, Singapore 649410", "lat": 1.347278, "lng": 103.7265636}, "854": {"name": "Gan Eng Seng Primary School Hall", "address": "100 Redhill Cl, Singapore 158901", "lat": 1.2857625, "lng": 103.8152625}, "453": {"name": "Gan Eng Seng Secondary School Hall", "address": "1 Henderson Rd, Singapore 159561", "lat": 1.2894529, "lng": 103.8237419}, "330": {"name": "Gongshang Primary School Hall", "address": "1 Tampines Street 42, Singapore 529176", "lat": 1.3571755, "lng": 103.9491666}, "328": {"name": "Greendale Primary School Hall", "address": "50 Edgedale Plains, Singapore 828848", "lat": 1.396421, "lng": 103.912588}, "417": {"name": "Greendale Secondary School Field", "address": "51 Edgedale Plains, Singapore 828866", "lat": 1.396986, "lng": 103.9117179}, "576": {"name": "Greenridge Secondary School Field", "address": "32 Bukit Panjang Ring Rd, Singapore 679938", "lat": 1.38206, "lng": 103.773836}, "559": {"name": "Greenridge Secondary School Hall", "address": "32 Bukit Panjang Ring Rd, Singapore 679938", "lat": 1.38206, "lng": 103.773836}, "347": {"name": "Greenview Secondary School Field", "address": "15 Pasir Ris Street 21, Singapore 518969", "lat": 1.3692804, "lng": 103.9627314}, "860": {"name": "Greenwood Primary School Hall", "address": "11 Woodlands Drive 62, Singapore 737942", "lat": 1.4400857, "lng": 103.8047143}, "543": {"name": "Hai Sing Catholic School Field", "address": "9 Pasir Ris Drive 6, Singapore 519421", "lat": 1.3744495, "lng": 103.9548524}, "454": {"name": "Hong Kah Secondary School Hall", "address": "931 Jurong West Street 42, Singapore 649370", "lat": 1.3521827, "lng": 103.7271021}, "803": {"name": "Hougang Meeting Room", "address": "21 Tan Quee Lan St, Singapore 188108", "lat": 1.2986095, "lng": 103.8564217}, "329": {"name": "Hougang Primary School Hall", "address": "1 Hougang Street 93, Singapore 534238", "lat": 1.3780264, "lng": 103.8808703}, "827": {"name": "Hougang Secondary School Hall", "address": "2 Hougang Street 93, Singapore 534256", "lat": 1.3775793, "lng": 103.8821388}, "301": {"name": "Hougang Sports Hall", "address": "93 Hougang Ave 4, Singapore 538832", "lat": 1.3705837, "lng": 103.8882097}, "353": {"name": "Hua Yi Secondary School Field", "address": "60 Jurong West Street 42, Singapore 649371", "lat": 1.351473, "lng": 103.72158}, "332": {"name": "Hua Yi Secondary School Hall", "address": "60 Jurong West Street 42, Singapore 649371", "lat": 1.351473, "lng": 103.72158}, "333": {"name": "Innova Primary School Hall", "address": "80 Woodlands Drive 17, Singapore 737888", "lat": 1.4292279, "lng": 103.7904863}, "811": {"name": "Jalan Besar Conference Room", "address": "230 Jln Besar, Singapore 208906", "lat": 1.3092639, "lng": 103.8579737}, "457": {"name": "Junyuan Primary School Hall", "address": "Singapore", "lat": 1.3478749, "lng": 103.939687}, "357": {"name": "Junyuan Secondary School Field", "address": "11 Tampines Street 84, Singapore 528933", "lat": 1.3533278, "lng": 103.9335232}, "858": {"name": "Junyuan Secondary School Hall", "address": "11 Tampines Street 84, Singapore 528933", "lat": 1.3533278, "lng": 103.9335232}, "808": {"name": "Jurong East Conference Room", "address": "21 Jurong East Central 1, Jurong Regional Library, Level 1, Singapore 609732", "lat": 1.332883, "lng": 103.739579}, "302": {"name": "Jurong East Sports Hall", "address": "21 Jurong East Street 31, Singapore 609517", "lat": 1.347031, "lng": 103.729069}, "437": {"name": "Jurong East Sports Hall Table Tennis Area", "address": "21 Jurong East Street 31, Singapore 609517", "lat": 1.347031, "lng": 103.729069}, "455": {"name": "Jurong Secondary School Hall", "address": "31 Yuan Ching Rd, Singapore 618652", "lat": 1.330365, "lng": 103.724282}, "807": {"name": "Jurong West Conference Room", "address": "60 Jurong West Central 3, #01-03, Singapore 648346", "lat": 1.3403319, "lng": 103.7045566}, "806": {"name": "Jurong West Meeting Room", "address": "60 Jurong West Central 3, #01-03, Singapore 648346", "lat": 1.3403319, "lng": 103.7045566}, "361": {"name": "Jurong West Secondary School Field", "address": "61 Jurong West Street 65, Singapore 648348", "lat": 1.3359257, "lng": 103.7016028}, "425": {"name": "Jurong West Secondary School Hall", "address": "61 Jurong West Street 65, Singapore 648348", "lat": 1.3359257, "lng": 103.7016028}, "304": {"name": "Jurong West Sports Hall", "address": "20 Jurong West Street 93, Singapore 648965", "lat": 1.3376193, "lng": 103.6941531}, "204": {"name": "Jurong West Tennis Centre", "address": "20 Jurong West Street 93, Singapore 648965", "lat": 1.3376193, "lng": 103.6941531}, "828": {"name": "Jurongville Secondary School Hall", "address": "202 Jurong East Avenue 1, Singapore 609790", "lat": 1.3516592, "lng": 103.7290977}, "364": {"name": "Juying Secondary School Field", "address": "33 Jurong West Street 91, Singapore 649038", "lat": 1.3395341, "lng": 103.6872268}, "829": {"name": "Juying Secondary School Hall", "address": "33 Jurong West Street 91, Singapore 649038", "lat": 1.3395341, "lng": 103.6872268}, "875": {"name": "Kallang Field", "address": "31 Stadium Cres, Singapore 397639", "lat": 1.3040951, "lng": 103.8802328}, "583": {"name": "Kallang Lawn Bowl", "address": "52 Stadium Rd, Singapore 397724", "lat": 1.3053339, "lng": 103.8790215}, "208": {"name": "Kallang Netball Centre", "address": "6 Stadium Boulevard, Kallang Netball Centre, Singapore 397797", "lat": 1.305978, "lng": 103.8796799}, "211": {"name": "Kallang Squash Centre", "address": "52 Stadium Rd, Singapore 397724", "lat": 1.3054519, "lng": 103.8796273}, "305": {"name": "Kallang Tennis Centre", "address": "8 Stadium Boulevard, Singapore 397804", "lat": 1.3059194, "lng": 103.8788087}, "885": {"name": "Keming Primary School Hall", "address": "90 Bukit Batok East Avenue 6, Singapore 659762", "lat": 1.3454147, "lng": 103.7562455}, "369": {"name": "Kent Ridge Secondary School Field", "address": "Singapore", "lat": 1.3013766, "lng": 103.7649426}, "452": {"name": "Kent Ridge Secondary School Hall", "address": "Singapore", "lat": 1.3013766, "lng": 103.7649426}, "862": {"name": "Lakeside Primary School Hall", "address": "161 Corporation Walk, Singapore 618310", "lat": 1.3384626, "lng": 103.718147}, "376": {"name": "Macpherson Secondary School Field", "address": "121 Circuit Rd, Singapore 379499", "lat": 1.3274711, "lng": 103.8888672}, "381": {"name": "Marsiling Secondary School Field", "address": "12 Marsiling Rd, Singapore 739110", "lat": 1.4386007, "lng": 103.7763391}, "384": {"name": "Mayflower Secondary School Field", "address": "2 Ang Mo Kio Street 21, Singapore 569384", "lat": 1.3686252, "lng": 103.8352119}, "881": {"name": "Mayflower Secondary School Hall", "address": "2 Ang Mo Kio Street 21, Singapore 569384", "lat": 1.3686252, "lng": 103.8352119}, "414": {"name": "Meridian Junior College Field", "address": "21 Pasir Ris Street 71, Singapore 518799", "lat": 1.3766539, "lng": 103.9372655}, "318": {"name": "MOE (Evans) Sports Hall", "address": "11 Evans Rd, Singapore 259368", "lat": 1.3175349, "lng": 103.819242}, "250": {"name": "MOE (Evans) Squash Centre", "address": "11 Evans Rd, Singapore 259368", "lat": 1.3175349, "lng": 103.819242}, "253": {"name": "MOE (Evans) Tennis Centre", "address": "11 Evans Rd, Singapore 259368", "lat": 1.3175349, "lng": 103.819242}, "248": {"name": "MOE Evans Hockey Pitch", "address": "11 Evans Rd, Singapore 259368", "lat": 1.3175349, "lng": 103.819242}, "249": {"name": "MOE Evans Outdoor Facilities", "address": "11 Evans Rd, Singapore 259368", "lat": 1.3175349, "lng": 103.819242}, "391": {"name": "Nan Hua High School Field", "address": "41 Clementi Ave 1, Singapore 129956", "lat": 1.3083739, "lng": 103.7689246}, "426": {"name": "Nan Hua High School Hall", "address": "41 Clementi Ave 1, Singapore 129956", "lat": 1.3083739, "lng": 103.7689246}, "441": {"name": "Naval Base Secondary School Field", "address": "901 Yishun Ring Rd, Singapore 768689", "lat": 1.4189428, "lng": 103.8306832}, "446": {"name": "Naval Base Secondary School Hall", "address": "901 Yishun Ring Rd, Singapore 768689", "lat": 1.4189428, "lng": 103.8306832}, "856": {"name": "New Town Primary School Hall", "address": "300 Tanglin Halt Road, Singapore 148812", "lat": 1.3000104, "lng": 103.8000727}, "220": {"name": "North View Secondary School Field", "address": "11 Rivervale Link, Singapore 545081", "lat": 1.38121, "lng": 103.8990751}, "883": {"name": "North Vista Primary School Hall", "address": "20 Compassvale Link, Singapore 544974", "lat": 1.3829181, "lng": 103.8960931}, "395": {"name": "North Vista Secondary School Field", "address": "11 Rivervale Link, Singapore 545081", "lat": 1.38121, "lng": 103.8990751}, "830": {"name": "North Vista Secondary School Hall", "address": "11 Rivervale Link, Singapore 545081", "lat": 1.38121, "lng": 103.8990751}, "400": {"name": "Northbrooks Secondary School Field", "address": "585 Yishun Ring Rd, Singapore 768692", "lat": 1.4212061, "lng": 103.8451553}, "751": {"name": "Northland Primary School Hall", "address": "15 Yishun Ave 4, Singapore 769026", "lat": 1.421155, "lng": 103.840576}, "560": {"name": "Northland Secondary School Hall", "address": "3 Yishun Street 22, Singapore 768578", "lat": 1.4358326, "lng": 103.8401937}, "831": {"name": "Northoaks Primary School Hall", "address": "Northoaks Primary School, 61 Sembawang Drive, Singapore 757622", "lat": 1.456638, "lng": 103.813826}, "884": {"name": "Oasis Primary School Hall", "address": "71 Edgefield Plains, Singapore 828716", "lat": 1.4041889, "lng": 103.9109517}, "399": {"name": "Orchid Park Secondary School Field", "address": "10 Yishun Street 81, Singapore 768454", "lat": 1.4156038, "lng": 103.8380899}, "850": {"name": "Our Tampines Hub - Community Auditorium", "address": "51 Tampines Ave 4, #02-84, Singapore 529684", "lat": 1.3524314, "lng": 103.9409849}, "832": {"name": "Palm View Primary School Hall", "address": "150 Compassvale Bow, Singapore 544822", "lat": 1.384006, "lng": 103.8910747}, "540": {"name": "Pasir Ris 5 a Side Soccer", "address": "120 Pasir Ris Central, Singapore 519640", "lat": 1.3742925, "lng": 103.9519752}, "805": {"name": "Pasir Ris Conference Room", "address": "1 Pasir Ris Close, Singapore 519599", "lat": 1.3779727, "lng": 103.9547071}, "402": {"name": "Pasir Ris Crest Secondary School Field", "address": "11 Pasir Ris Street 41, Singapore 518934", "lat": 1.3728674, "lng": 103.9594764}, "459": {"name": "Pasir Ris Crest Secondary School Hall", "address": "11 Pasir Ris Street 41, Singapore 518934", "lat": 1.3728674, "lng": 103.9594764}, "406": {"name": "Pasir Ris Secondary School Field", "address": "390 Tampines Street 21, Singapore 529400", "lat": 1.354757, "lng": 103.948533}, "338": {"name": "Pasir Ris Secondary School Hall", "address": "390 Tampines Street 21, Singapore 529400", "lat": 1.354757, "lng": 103.948533}, "542": {"name": "Pasir Ris Sports Hall", "address": "120 Pasir Ris Central, Singapore 519640", "lat": 1.3742925, "lng": 103.9519752}, "586": {"name": "Pasir Ris Sports Hall Table Tennis Area", "address": "120 Pasir Ris Central, Singapore 519640", "lat": 1.3742925, "lng": 103.9519752}, "539": {"name": "Pasir Ris Tennis Centre", "address": "120 Pasir Ris Central, Singapore 519640", "lat": 1.3742925, "lng": 103.9519752}, "409": {"name": "Pei Hwa Secondary School Field", "address": "21 Fernvale Link, Singapore 797702", "lat": 1.3906452, "lng": 103.8784603}, "447": {"name": "Peicai Secondary School Hall", "address": "10 Serangoon Ave 4, Singapore 556094", "lat": 1.3593733, "lng": 103.8704861}, "419": {"name": "Peirce Secondary School Field", "address": "10 Sin Ming Walk, Singapore 575566", "lat": 1.3662806, "lng": 103.8298057}, "553": {"name": "Peirce Secondary School Hall", "address": "10 Sin Ming Walk, Singapore 575566", "lat": 1.3662806, "lng": 103.8298057}, "413": {"name": "Ping Yi Secondary School Field", "address": "61 Chai Chee St, Singapore 468980", "lat": 1.326674, "lng": 103.920663}, "427": {"name": "Ping Yi Secondary School Hall", "address": "61 Chai Chee St, Singapore 468980", "lat": 1.326674, "lng": 103.920663}, "557": {"name": "Poi Ching School Hall", "address": "21 Tampines Street 71, Singapore 529067", "lat": 1.3577836, "lng": 103.9352454}, "408": {"name": "Punggol Secondary School Field", "address": "36 Punggol Field, Singapore 828814", "lat": 1.4002145, "lng": 103.902302}, "458": {"name": "Punggol Secondary School Hall", "address": "51 Edgefield Plains, Singapore 828870", "lat": 1.4026867, "lng": 103.9091383}, "833": {"name": "Queenstown Primary School Hall", "address": "310 Margaret Dr, Singapore 149303", "lat": 1.296113, "lng": 103.8074967}, "442": {"name": "Queenstown Secondary School Field", "address": "1 Strathmore Rd, Singapore 148800", "lat": 1.2937571, "lng": 103.8131968}, "405": {"name": "Queensway Secondary School Field", "address": "2A Margaret Dr, Singapore 149295", "lat": 1.3004382, "lng": 103.8020649}, "430": {"name": "Queensway Secondary School Hall", "address": "2A Margaret Dr, Singapore 149295", "lat": 1.3004382, "lng": 103.8020649}, "834": {"name": "Radin Mas Primary School Hall", "address": "1 Bukit Purmei Ave, Singapore 100949", "lat": 1.2750879, "lng": 103.8240714}, "403": {"name": "Regent Secondary School Field", "address": "50 Choa Chu Kang North 5, Singapore 689621", "lat": 1.3936053, "lng": 103.7510018}, "396": {"name": "Riverside Secondary School Field", "address": "3 Woodlands Street 81, Singapore 738524", "lat": 1.4404834, "lng": 103.788591}, "431": {"name": "Riverside Secondary School Hall", "address": "3 Woodlands Street 81, Singapore 738524", "lat": 1.4404834, "lng": 103.788591}, "835": {"name": "Sembawang Primary School Hall", "address": "10 Sembawang Drive, Singapore 757715", "lat": 1.4454058, "lng": 103.8209854}, "392": {"name": "Sembawang Secondary School Field", "address": "30 Sembawang Crescent, Singapore 757704", "lat": 1.4455764, "lng": 103.8169015}, "340": {"name": "Sembawang Secondary School Hall", "address": "30 Sembawang Crescent, Singapore 757704", "lat": 1.4455764, "lng": 103.8169015}, "813": {"name": "Sengkang Conference Room", "address": "2 Sengkang Square, Singapore 545025", "lat": 1.3927635, "lng": 103.8940278}, "866": {"name": "Sengkang Green Primary School Hall", "address": "15 Fernvale Rd, Singapore 797636", "lat": 1.3925337, "lng": 103.8751169}, "240": {"name": "Sengkang Hockey Pitch", "address": "Singapore", "lat": 1.3954734, "lng": 103.8861424}, "389": {"name": "Sengkang Secondary School Field", "address": "10 Compassvale Ln, Singapore 545090", "lat": 1.3862154, "lng": 103.8983495}, "308": {"name": "Sengkang Sports Hall", "address": "57 Anchorvale Rd, Singapore 544964", "lat": 1.3964638, "lng": 103.8868362}, "443": {"name": "Serangoon Garden Secondary School Field", "address": "21 Serangoon North Ave 1, Singapore 555889", "lat": 1.3697258, "lng": 103.8689858}, "449": {"name": "Serangoon Garden Secondary School Hall", "address": "21 Serangoon North Ave 1, Singapore 555889", "lat": 1.3697258, "lng": 103.8689858}, "385": {"name": "Serangoon Secondary School Field", "address": "11 Upper Serangoon View, Singapore 534237", "lat": 1.3748927, "lng": 103.9022635}, "244": {"name": "Serangoon Swimming Complex", "address": "35 Yio Chu Kang Road, Singapore 545552", "lat": 1.3572148, "lng": 103.8746709}, "578": {"name": "Shuqun Secondary School Field", "address": "450 Jurong East Street 21, Singapore 609604", "lat": 1.340338, "lng": 103.739469}, "451": {"name": "Shuqun Secondary School Hall", "address": "450 Jurong East Street 21, Singapore 609604", "lat": 1.340338, "lng": 103.739469}, "349": {"name": "Si Ling Secondary School Field", "address": "61 Woodlands Ave 1, Singapore 739067", "lat": 1.432693, "lng": 103.78577}, "880": {"name": "South View Primary School Hall", "address": "6 Choa Chu Kang Central, Singapore 689762", "lat": 1.381324, "lng": 103.7471451}, "599": {"name": "Spectra School Hall", "address": "1, Woodlands Drive 64, Singapore 677899", "lat": 1.4364631, "lng": 103.8043528}, "355": {"name": "Springfield Secondary School Field", "address": "30 Tampines Ave 8, Singapore 529593", "lat": 1.3498342, "lng": 103.9300788}, "859": {"name": "Springfield Secondary School Hall", "address": "30 Tampines Ave 8, Singapore 529593", "lat": 1.3498342, "lng": 103.9300788}, "577": {"name": "St Gabriel's Secondary School Field", "address": "24 Serangoon Ave 1, Singapore 556140", "lat": 1.3467554, "lng": 103.8757594}, "255": {"name": "St Wilfrid Field", "address": "3 St Wilfred Rd, Singapore 327920", "lat": 1.3257834, "lng": 103.861621}, "309": {"name": "St Wilfrid Squash Centre", "address": "3 St Wilfred Rd, Singapore 327920", "lat": 1.3252134, "lng": 103.8617555}, "256": {"name": "St Wilfrid Tennis Centre", "address": "3 St Wilfred Rd, Singapore 327920", "lat": 1.3252134, "lng": 103.8617555}, "863": {"name": "St. Anthony's Primary School Hall", "address": "659401, 30 Bukit Batok Street 32, Singapore", "lat": 1.3644907, "lng": 103.7492288}, "562": {"name": "St. Gabriel'S Secondary School Hall", "address": "86 Lor Gambir, Singapore 536651", "lat": 1.3463591, "lng": 103.8746485}, "861": {"name": "Swiss Cottage Secondary School Hall", "address": "3 Bukit Batok Street 34, Singapore 659322", "lat": 1.36469, "lng": 103.75064}, "359": {"name": "Tampines Secondary School Field", "address": "252 Tampines Street 12, Singapore 529427", "lat": 1.3493258, "lng": 103.9445009}, "366": {"name": "Tanglin Secondary School Field", "address": "301 West Coast Road, Singapore 127391", "lat": 1.3097054, "lng": 103.7581468}, "373": {"name": "Tanjong Katong Secondary School Field", "address": "130 Haig Road, Singapore 438796", "lat": 1.308679, "lng": 103.8977242}, "857": {"name": "Tanjong Katong Secondary School Hall", "address": "130 Haig Road, Singapore 438796", "lat": 1.308679, "lng": 103.8977242}, "872": {"name": "Temasek Primary School Hall", "address": "501 Bedok South Ave 3, Singapore 469300", "lat": 1.317502, "lng": 103.945488}, "873": {"name": "Temasek Secondary School Hall", "address": "600 Upper East Coast Rd, Singapore 465561", "lat": 1.3162068, "lng": 103.9470222}, "812": {"name": "Toa Payoh conference Room", "address": "6 Toa Payoh Central, Toa Payoh Public Library, Level 1, Singapore 319191", "lat": 1.3334625, "lng": 103.8501854}, "266": {"name": "Toa Payoh Petanque Courts", "address": "301 Lor 6 Toa Payoh, Singapore 319392", "lat": 1.3305678, "lng": 103.8506526}, "311": {"name": "Toa Payoh Sports Hall", "address": "279A Lor 6 Toa Payoh, Singapore 319389", "lat": 1.3302828, "lng": 103.8515717}, "882": {"name": "Townsville Primary School Hall", "address": "3 Ang Mo Kio Ave 10, Singapore 569730", "lat": 1.3600534, "lng": 103.8537829}, "433": {"name": "Unity Primary School Hall", "address": "21 Choa Chu Kang Cres, Singapore 688268", "lat": 1.403245, "lng": 103.74729}, "575": {"name": "Unity Secondary School Field", "address": "20 Choa Chu Kang Street 62, Singapore 689143", "lat": 1.3995027, "lng": 103.7459328}, "342": {"name": "Unity Secondary School Hall", "address": "20 Choa Chu Kang Street 62, Singapore 689143", "lat": 1.3995027, "lng": 103.7459328}, "865": {"name": "Waterway Primary School Hall", "address": "70 Punggol Drive, Singapore 828802", "lat": 1.3990541, "lng": 103.9184708}, "394": {"name": "West Spring Secondary School Field", "address": "61 Senja Rd, Singapore 677737", "lat": 1.3879387, "lng": 103.7599781}, "432": {"name": "West Spring Secondary School Hall", "address": "61 Senja Rd, Singapore 677737", "lat": 1.3879387, "lng": 103.7599781}, "398": {"name": "Westwood Secondary School Field", "address": "11 Jurong West Street 25, Singapore 648350", "lat": 1.3537784, "lng": 103.7017949}, "401": {"name": "Woodgrove Secondary School Field", "address": "3 Woodlands Ave 6, Singapore 738990", "lat": 1.429005, "lng": 103.797442}, "878": {"name": "Woodlands Ring Primary School Hall", "address": "11 Woodlands Ring Rd, Singapore 738240", "lat": 1.4345519, "lng": 103.7978994}, "404": {"name": "Woodlands Ring Secondary School Field", "address": "10 Woodlands Ring Rd, Singapore 738239", "lat": 1.436147, "lng": 103.800671}, "407": {"name": "Woodlands Secondary School Field", "address": "11 Marsiling Rd, Singapore 739111", "lat": 1.4399817, "lng": 103.774358}, "561": {"name": "Woodlands Secondary School Hall", "address": "11 Marsiling Rd, Singapore 739111", "lat": 1.4399817, "lng": 103.774358}, "312": {"name": "Woodlands Sports Hall", "address": "2 Woodlands Street 12, Singapore 738620", "lat": 1.4341488, "lng": 103.7798808}, "802": {"name": "Woodlands Sports Hall Meeting Room", "address": "2 Woodlands Street 12, Singapore 738620", "lat": 1.4341488, "lng": 103.7798808}, "569": {"name": "Xing Hua Primary School", "address": "45 Hougang Ave 1, Singapore 538882", "lat": 1.3578717, "lng": 103.8901506}, "800": {"name": "Yio Chu Kang Conference Room", "address": "50 Ang Mo Kio Street 61, Singapore 569163", "lat": 1.3810466, "lng": 103.8411902}, "412": {"name": "Yio Chu Kang Secondary School Field", "address": "3063 Ang Mo Kio Ave 5, Singapore 569868", "lat": 1.3781326, "lng": 103.841765}, "450": {"name": "Yio Chu Kang Secondary School Hall", "address": "3063 Ang Mo Kio Ave 5, Singapore 569868", "lat": 1.3781326, "lng": 103.841765}, "314": {"name": "Yio Chu Kang Sports Hall", "address": "3 Bedok North Street 2, Singapore 469643", "lat": 1.3263408, "lng": 103.9377652}, "281": {"name": "Yio Chu Kang Squash Centre", "address": "210 Ang Mo Kio Ave 9, Singapore 569777", "lat": 1.3829281, "lng": 103.8469486}, "283": {"name": "Yio Chu Kang Tennis Centre", "address": "210 Ang Mo Kio Ave 9, Singapore 569777", "lat": 1.3829281, "lng": 103.8469486}, "868": {"name": "Yishun Primary School Hall", "address": "500 Yishun Ring Rd, Singapore 768679", "lat": 1.4334921, "lng": 103.8337811}, "434": {"name": "Yishun Secondary School Hall", "address": "4 Yishun Street 71, Singapore 768516", "lat": 1.428129, "lng": 103.828833}, "316": {"name": "Yishun Sports Hall", "address": "Yishun Sports Hall, Singapore", "lat": 1.4134287, "lng": 103.831563}, "801": {"name": "Yishun Sports Hall - Meeting Room", "address": "60 Yishun Avenue 4, Singapore 769027", "lat": 1.423853, "lng": 103.8409}, "344": {"name": "Yishun Town Secondary School Hall", "address": "6 Yishun Street 21, Singapore 768610", "lat": 1.4327369, "lng": 103.8381008}, "456": {"name": "Yuan Ching Secondary School Hall", "address": "103 Yuan Ching Rd, Singapore 618654", "lat": 1.3420389, "lng": 103.7204095}, "335": {"name": "Yusof Ishak Secondary School Field", "address": "11 Bukit Batok Street 25, Singapore 658712", "lat": 1.342423, "lng": 103.760309}, "345": {"name": "Yusof Ishak Secondary School Hall", "address": "11 Bukit Batok Street 25, Singapore 658712", "lat": 1.342423, "lng": 103.760309}, "435": {"name": "Yuying Secondary School Hall", "address": "47 Hougang Ave 1, Singapore 538884", "lat": 1.356754, "lng": 103.890092}, "855": {"name": "Zhangde Primary School Hall", "address": "51 Jln Membina, Singapore 169485", "lat": 1.284578, "lng": 103.826193}, "448": {"name": "Zhonghua Primary School Hall", "address": "12 Serangoon Ave 4, Singapore 556095", "lat": 1.3598616, "lng": 103.8696227}}